[
  {
    "id": 1,
    "category": "lodging",
    "name": "בית",
    "address": "ה' באייר 55, ראש העין",
    "lat": 32.098186840571564,
    "lng": 34.97733700851728,
    "details": "בית משפחת גוברין"
  },
  {
    "id": 1744108158947,
    "category": "lodging",
    "name": "קניון הסלע",
    "address": "דרך הציונות 18 ראש העין , ישראל",
    "lat": 32.10182117775335,
    "lng": 34.96053414552465,
    "details": "גבעת הסלעים"
  },
  {
    "id": 1744108218016,
    "category": "restaurant",
    "name": "השווארמה של עזריאל",
    "address": "מרבד הקסמים 8, ראש העין",
    "lat": 32.09752039613725,
    "lng": 34.9446609607651,
    "details": ""
  },
  {
    "id": 1744108251301,
    "category": "restaurant",
    "name": "פרש דה מארקט",
    "address": "דרך מנחם בגין, ראש העין",
    "lat": 32.098686670740086,
    "lng": 34.95946773388671,
    "details": ""
  },
  {
    "id": 1744108288724,
    "category": "pub",
    "name": "איט בר",
    "address": "משה דיין 2, ראש העין",
    "lat": 32.093450219132656,
    "lng": 34.96637943443305,
    "details": ""
  },
  {
    "id": 1744108398755,
    "category": "attraction",
    "name": "תיכון בגין",
    "address": "ג'ון קנדי 8, ראש העין",
    "lat": 32.09173640598092,
    "lng": 34.95219078082147,
    "details": ""
  },
  {
    "id": 1744108445520,
    "category": "restaurant",
    "name": "מסעדת פלפלה",
    "address": "עבדל קארים קאסם, כפר קאסם, 4881000",
    "lat": 32.1142038461298,
    "lng": 34.96466555745988,
    "details": ""
  },
  {
    "id": 1744108485124,
    "category": "pub",
    "name": "בונו בר",
    "address": "אלוף הרב גורן 38, ראש העין",
    "lat": 32.088998999251885,
    "lng": 34.98191671253782,
    "details": ""
  },
  {
    "id": 1744108616631,
    "category": "shopping",
    "name": "בול מארקט",
    "address": "ניסים אלוני 2, ראש העין, 4813950",
    "lat": 32.08582326619066,
    "lng": 34.97911119976744,
    "details": ""
  },
  {
    "id": 1744108665322,
    "category": "shopping",
    "name": "ויקטורי",
    "address": "עמל 2, ראש העין",
    "lat": 32.108501072024055,
    "lng": 34.964146737765375,
    "details": "ויקטורע בפארק אפק"
  },
  {
    "id": 1744126605429,
    "category": "lodging",
    "name": "בית אמא",
    "address": "רמז 6, רמת השרון, 4727005",
    "lat": 32.13672058865558,
    "lng": 34.85015761853964,
    "details": "סימי גוברין"
  },
  {
    "id": 1744126746888,
    "category": "lodging",
    "name": "שקד ועמנואל",
    "address": "סמדר 1, ראש העין",
    "lat": 32.08743238189354,
    "lng": 34.954528689705036,
    "details": ""
  },
  {
    "id": 1744126925267,
    "category": "cafe",
    "name": "גולדה  גלידריה",
    "address": "הרב שלום שבזי 10, ראש העין",
    "lat": 32.09863638832699,
    "lng": 34.94190808751123,
    "details": ""
  },
  {
    "id": 1744126952537,
    "category": "restaurant",
    "name": "וופל בר",
    "address": "העבודה 14, ראש העין",
    "lat": 32.1065689110717,
    "lng": 34.94154531827771,
    "details": ""
  },
  {
    "id": 1744127002731,
    "category": "restaurant",
    "name": "פלאפל אחלה",
    "address": "חותמי המגילה 20, ראש העין",
    "lat": 32.098446183739604,
    "lng": 34.94851866597017,
    "details": ""
  },
  {
    "id": 1744127060405,
    "category": "shopping",
    "name": "טכנו דרור",
    "address": "הרב שלום שבזי 144, ראש העין",
    "lat": 32.088191227751445,
    "lng": 34.95275700280152,
    "details": "טמבוריה"
  },
  {
    "id": 1744127150933,
    "category": "attraction",
    "name": "גן לאומי מגדל צדק",
    "address": "00, ראש העין",
    "lat": 32.08102527640928,
    "lng": 34.957027696971664,
    "details": "שמורת מגדל צדק"
  },
  {
    "id": 1744127196064,
    "category": "shopping",
    "name": "שפיר סנטר",
    "address": "יגאל אלון 22, ראש העין",
    "lat": 32.08637593353112,
    "lng": 34.97978759674297,
    "details": ""
  },
  {
    "id": 1744127335640,
    "category": "restaurant",
    "name": "קומל טורטיה בר",
    "address": "הרב שלום שבזי 30, ראש העין",
    "lat": 32.096820448551775,
    "lng": 34.94391485884437,
    "details": ""
  },
  {
    "id": 1744127469898,
    "category": "shopping",
    "name": "שופרסל לב אפק",
    "address": "ברקן 1, ראש העין",
    "lat": 32.09374346309513,
    "lng": 34.97378931793795,
    "details": ""
  },
  {
    "id": 1744127506067,
    "category": "shopping",
    "name": "קניון לב אפק",
    "address": "מישר 1, ראש העין",
    "lat": 32.09283407242924,
    "lng": 34.973839951294906,
    "details": ""
  },
  {
    "id": 1744127641458,
    "category": "restaurant",
    "name": "מוזס",
    "address": "יגאל אלון 22, ראש העין",
    "lat": 32.086160868797386,
    "lng": 34.979778153380465,
    "details": ""
  },
  {
    "id": 1744127720379,
    "category": "restaurant",
    "name": "ג'פניקה",
    "address": "יהושע בן נון 77, ראש העין",
    "lat": 32.10493774876918,
    "lng": 34.94233511105245,
    "details": ""
  },
  {
    "id": 1744127759338,
    "category": "restaurant",
    "name": "נגיסה סושי בר",
    "address": "עמל 13, ראש העין",
    "lat": 32.10651290668587,
    "lng": 34.96871270744239,
    "details": ""
  },
  {
    "id": 1744127796422,
    "category": "restaurant",
    "name": "הפינה החלבית",
    "address": "המלאכה 8, ראש העין",
    "lat": 32.10960276893456,
    "lng": 34.967060466699564,
    "details": ""
  },
  {
    "id": 1744127837697,
    "category": "restaurant",
    "name": "אלגמוס",
    "address": "עמל 13, ראש העין",
    "lat": 32.10657286497395,
    "lng": 34.96846652061669,
    "details": ""
  },
  {
    "id": 1744127871549,
    "category": "restaurant",
    "name": "ביסבס",
    "address": "המלאכה 6, ראש העין",
    "lat": 32.108898806980285,
    "lng": 34.96584796676459,
    "details": ""
  }
]